$GPHDT,293.97,T*03
$GPGGA,142043.00,5753.4789081,N,01140.9459219,E,2,09,0.9,-0.124,M,39.608,M,4.0,0136*6F
$GPRMC,142043.00,A,5753.4789081,N,01140.9459219,E,0.00,205.34,110521,4.0,E,D,S*4D
$GPHDT,294.10,T*0B
$GPGGA,142044.00,5753.4789072,N,01140.9459199,E,2,09,0.9,-0.119,M,39.608,M,5.0,0136*60
$GPRMC,142044.00,A,5753.4789072,N,01140.9459199,E,0.01,233.92,110521,4.0,E,D,S*45
$GPHDT,294.15,T*0E
$GPGGA,142045.00,5753.4789073,N,01140.9459155,E,2,09,0.9,-0.122,M,39.608,M,5.0,0136*68
$GPRMC,142045.00,A,5753.4789073,N,01140.9459155,E,0.01,245.13,110521,4.0,E,D,S*4D
$GPHDT,294.20,T*08
$GPGGA,142046.00,5753.4789068,N,01140.9459122,E,2,09,0.9,-0.126,M,39.608,M,3.0,0136*63
$GPRMC,142046.00,A,5753.4789068,N,01140.9459122,E,0.01,234.15,110521,4.0,E,D,S*44
$GPHDT,294.27,T*0F
$GPGGA,142047.00,5753.4789070,N,01140.9459129,E,2,09,0.9,-0.127,M,39.608,M,4.0,0136*66
$GPRMC,142047.00,A,5753.4789070,N,01140.9459129,E,0.00,223.06,110521,4.0,E,D,S*42
$GPHDT,294.46,T*08
$GPGGA,142048.00,5753.4789088,N,01140.9459156,E,2,09,0.9,-0.133,M,39.608,M,5.0,0136*62
$GPRMC,142048.00,A,5753.4789088,N,01140.9459156,E,0.01,238.00,110521,4.0,E,D,S*4F
$GPHDT,294.63,T*0F
$GPGGA,142049.00,5753.4789077,N,01140.9459177,E,2,09,0.9,-0.132,M,39.608,M,5.0,0136*61
$GPRMC,142049.00,A,5753.4789077,N,01140.9459177,E,0.00,249.90,110521,4.0,E,D,S*43
$GPHDT,294.91,T*02
$GPGGA,142050.00,5753.4789069,N,01140.9459169,E,2,09,0.9,-0.137,M,39.608,M,3.0,0136*6A
$GPRMC,142050.00,A,5753.4789069,N,01140.9459169,E,0.00,234.05,110521,4.0,E,D,S*4D
$GPHDT,295.01,T*0A
$GPGGA,142051.00,5753.4789062,N,01140.9459128,E,2,09,0.9,-0.130,M,39.608,M,4.0,0136*65
$GPRMC,142051.00,A,5753.4789062,N,01140.9459128,E,0.01,229.65,110521,4.0,E,D,S*49
$GPHDT,294.97,T*04
$GPGGA,142052.00,5753.4789048,N,01140.9459125,E,2,09,0.9,-0.134,M,39.608,M,5.0,0136*66
$GPRMC,142052.00,A,5753.4789048,N,01140.9459125,E,0.01,230.76,110521,4.0,E,D,S*45
$GPHDT,294.87,T*05
$GPGGA,142053.00,5753.4789046,N,01140.9459102,E,2,09,0.9,-0.137,M,39.608,M,5.0,0136*6F
$GPRMC,142053.00,A,5753.4789046,N,01140.9459102,E,0.00,260.65,110521,4.0,E,D,S*49
$GPHDT,294.94,T*07
$GPGGA,142054.00,5753.4789043,N,01140.9459147,E,2,09,0.9,-0.138,M,39.608,M,3.0,0136*65
$GPRMC,142054.00,A,5753.4789043,N,01140.9459147,E,0.00,267.62,110521,4.0,E,D,S*4A
$GPHDT,295.12,T*08
$GPGGA,142055.00,5753.4789038,N,01140.9459180,E,2,09,0.9,-0.131,M,39.608,M,4.0,0136*6D
$GPRMC,142055.00,A,5753.4789038,N,01140.9459180,E,0.01,276.83,110521,4.0,E,D,S*42
$GPHDT,295.04,T*0F
$GPGGA,142056.00,5753.4789020,N,01140.9459183,E,2,09,0.9,-0.133,M,39.608,M,5.0,0136*67
$GPRMC,142056.00,A,5753.4789020,N,01140.9459183,E,0.01,263.96,110521,4.0,E,D,S*4B
$GPHDT,294.68,T*04
$GPGGA,142057.00,5753.4789019,N,01140.9459191,E,2,09,0.9,-0.132,M,39.608,M,5.0,0136*6E
$GPRMC,142057.00,A,5753.4789019,N,01140.9459191,E,0.00,251.25,110521,4.0,E,D,S*4B
$GPHDT,294.45,T*0B
$GPGGA,142058.00,5753.4788996,N,01140.9459197,E,2,09,0.9,-0.120,M,39.608,M,3.0,0136*6D
$GPRMC,142058.00,A,5753.4788996,N,01140.9459197,E,0.01,220.99,110521,4.0,E,D,S*4D
$GPHDT,294.26,T*0E
$GPGGA,142059.00,5753.4788991,N,01140.9459178,E,2,09,0.9,-0.122,M,39.608,M,4.0,0136*6F
$GPRMC,142059.00,A,5753.4788991,N,01140.9459178,E,0.00,220.21,110521,4.0,E,D,S*48
$GPHDT,294.02,T*08
$GPGGA,142100.00,5753.4789009,N,01140.9459147,E,2,09,0.9,-0.123,M,39.608,M,5.0,0136*67
$GPRMC,142100.00,A,5753.4789009,N,01140.9459147,E,0.01,246.13,110521,4.0,E,D,S*40
$GPHDT,293.86,T*03
$GPGGA,142101.00,5753.4788999,N,01140.9459162,E,2,09,0.9,-0.122,M,39.608,M,5.0,0136*61
$GPRMC,142101.00,A,5753.4788999,N,01140.9459162,E,0.00,235.74,110521,4.0,E,D,S*43
$GPHDT,293.93,T*07
$GPGGA,142102.00,5753.4788997,N,01140.9459179,E,2,09,0.9,-0.128,M,39.608,M,3.0,0136*6A
$GPRMC,142102.00,A,5753.4788997,N,01140.9459179,E,0.00,230.11,110521,4.0,E,D,S*42
$GPHDT,294.04,T*0E
$GPGGA,142103.00,5753.4789003,N,01140.9459201,E,2,09,0.9,-0.133,M,39.608,M,4.0,0136*6F
$GPRMC,142103.00,A,5753.4789003,N,01140.9459201,E,0.00,240.98,110521,4.0,E,D,S*4C
$GPHDT,293.98,T*0C
$GPGGA,142104.00,5753.4788984,N,01140.9459226,E,2,09,0.9,-0.128,M,39.608,M,5.0,0136*61
$GPRMC,142104.00,A,5753.4788984,N,01140.9459226,E,0.01,218.37,110521,4.0,E,D,S*40
$GPHDT,293.56,T*0E
$GPGGA,142105.00,5753.4788983,N,01140.9459208,E,2,09,0.9,-0.138,M,39.608,M,5.0,0136*6A
$GPRMC,142105.00,A,5753.4788983,N,01140.9459208,E,0.00,219.51,110521,4.0,E,D,S*4A
$GPHDT,293.28,T*07
$GPGGA,142106.00,5753.4788980,N,01140.9459218,E,2,09,0.9,-0.128,M,39.608,M,3.0,0136*6C
$GPRMC,142106.00,A,5753.4788980,N,01140.9459218,E,0.00,208.84,110521,4.0,E,D,S*43
$GPHDT,293.08,T*05
$GPGGA,142107.00,5753.4788971,N,01140.9459222,E,2,09,0.9,-0.132,M,39.608,M,4.0,0136*66
$GPRMC,142107.00,A,5753.4788971,N,01140.9459222,E,0.00,219.02,110521,4.0,E,D,S*4B
$GPHDT,293.05,T*08
$GPGGA,142108.00,5753.4788946,N,01140.9459217,E,2,09,0.9,-0.141,M,39.608,M,5.0,0136*6E
$GPRMC,142108.00,A,5753.4788946,N,01140.9459217,E,0.00,196.22,110521,4.0,E,D,S*40
$GPHDT,293.07,T*0A
$GPGGA,142109.00,5753.4788938,N,01140.9459240,E,2,09,0.9,-0.138,M,39.608,M,5.0,0136*6A
$GPRMC,142109.00,A,5753.4788938,N,01140.9459240,E,0.01,190.89,110521,4.0,E,D,S*4C
